{
"type": "FeatureCollection",
"crs": { "type": "name", "properties": { "name": "urn:ogc:def:crs:OGC:1.3:CRS84" } },
"features": [
{ "type": "Feature", "properties": { "ID": "IDFM:22192-Gestion flux", "LIGNE": "08", "STATION": "La Tour-Maubourg", "CARACTERISTIC": "Gestion flux", "datetime": "2024-07-25T07:00:00" }, "geometry": { "type": "Point", "coordinates": [ 2.310588789873988, 48.857669229564031 ] } },
{ "type": "Feature", "properties": { "ID": "IDFM:22194-Gestion flux", "LIGNE": "08", "STATION": "Madeleine", "CARACTERISTIC": "Gestion flux", "datetime": "2024-07-24T07:30:00" }, "geometry": { "type": "Point", "coordinates": [ 2.326027211772999, 48.869565616117718 ] } },
{ "type": "Feature", "properties": { "ID": "IDFM:22159-Gestion flux", "LIGNE": "08", "STATION": "Strasbourg - Saint-Denis", "CARACTERISTIC": "Gestion flux", "datetime": "2024-07-24T07:00:00" }, "geometry": { "type": "Point", "coordinates": [ 2.353744768129407, 48.869385723991194 ] } },
{ "type": "Feature", "properties": { "ID": "IDFM:24128-Gestion flux", "LIGNE": "T3a", "STATION": "Porte de Vanves", "CARACTERISTIC": "Gestion flux", "datetime": "2024-07-25T06:00:00" }, "geometry": { "type": "Point", "coordinates": [ 2.306683870807259, 48.827454921561646 ] } },
{ "type": "Feature", "properties": { "ID": "IDFM:412988-Gestion flux", "LIGNE": "T3b", "STATION": "Porte de la Chapelle", "CARACTERISTIC": "Gestion flux", "datetime": "2024-07-27T06:00:00" }, "geometry": { "type": "Point", "coordinates": [ 2.358459478922367, 48.89834248111346 ] } },
{ "type": "Feature", "properties": { "ID": "IDFM:29379-Gestion flux", "LIGNE": "T3b", "STATION": "Porte de la Villette", "CARACTERISTIC": "Gestion flux", "datetime": "2024-07-24T10:00:00" }, "geometry": { "type": "Point", "coordinates": [ 2.38650099443207, 48.897419226086392 ] } },
{ "type": "Feature", "properties": { "ID": "IDFM:42123-Protection Civile", "LIGNE": "T8", "STATION": "Saint-Denis - Porte de Paris", "CARACTERISTIC": "Protection Civile", "datetime": "2024-07-24T21:00:00" }, "geometry": { "type": "Point", "coordinates": [ 2.357253307986424, 48.929748691761759 ] } },
{ "type": "Feature", "properties": { "ID": "IDFM:462963-Protection Civile", "LIGNE": "09", "STATION": "République", "CARACTERISTIC": "Protection Civile", "datetime": "2024-07-26T16:00:00" }, "geometry": { "type": "Point", "coordinates": [ 2.363302340780454, 48.867512357811137 ] } },
{ "type": "Feature", "properties": { "ID": "IDFM:463264-Gestion flux", "LIGNE": "09", "STATION": "Strasbourg - Saint-Denis", "CARACTERISTIC": "Gestion flux", "datetime": "2024-07-24T07:00:00" }, "geometry": { "type": "Point", "coordinates": [ 2.353822382009362, 48.869503057302651 ] } },
{ "type": "Feature", "properties": { "ID": "IDFM:463318-Gestion flux", "LIGNE": "09", "STATION": "Trocadéro", "CARACTERISTIC": "Gestion flux", "datetime": "2024-07-24T07:30:00" }, "geometry": { "type": "Point", "coordinates": [ 2.286826249801301, 48.863087979893443 ] } },
{ "type": "Feature", "properties": { "ID": "IDFM:463055-Gestion flux", "LIGNE": "09", "STATION": "Rue de la Pompe", "CARACTERISTIC": "Gestion flux", "datetime": "2024-07-24T12:00:00" }, "geometry": { "type": "Point", "coordinates": [ 2.277916063289398, 48.864037329375087 ] } },
{ "type": "Feature", "properties": { "ID": "IDFM:21926-Protection Civile", "LIGNE": "09", "STATION": "Havre-Caumartin", "CARACTERISTIC": "Protection Civile", "datetime": "2024-07-26T15:00:00" }, "geometry": { "type": "Point", "coordinates": [ 2.327651103418782, 48.873666751945123 ] } },
{ "type": "Feature", "properties": { "ID": "IDFM:463234-Protection Civile", "LIGNE": "10", "STATION": "Porte d'Auteuil", "CARACTERISTIC": "Protection Civile", "datetime": "2024-07-27T16:00:00" }, "geometry": { "type": "Point", "coordinates": [ 2.258280744595537, 48.847904123629235 ] } },
{ "type": "Feature", "properties": { "ID": "IDFM:463061-Gestion flux", "LIGNE": "11", "STATION": "Hôtel de Ville", "CARACTERISTIC": "Gestion flux", "datetime": "2024-07-24T07:00:00" }, "geometry": { "type": "Point", "coordinates": [ 2.351423991942873, 48.857600736334462 ] } },
{ "type": "Feature", "properties": { "ID": "IDFM:463236-Gestion flux", "LIGNE": "12", "STATION": "Marx Dormoy", "CARACTERISTIC": "Gestion flux", "datetime": "2024-07-27T12:00:00" }, "geometry": { "type": "Point", "coordinates": [ 2.359808478084024, 48.89057957856722 ] } },
{ "type": "Feature", "properties": { "ID": "IDFM:22057-Olympique", "LIGNE": "12", "STATION": "Concorde", "CARACTERISTIC": "Olympique", "datetime": "2024-07-01T00:00:00" }, "geometry": { "type": "Point", "coordinates": [ 2.323181449571859, 48.866150034825942 ] } },
{ "type": "Feature", "properties": { "ID": "IDFM:463301-Protection Civile", "LIGNE": "13", "STATION": "Saint-Denis - Porte de Paris", "CARACTERISTIC": "Protection Civile", "datetime": "2024-07-24T21:00:00" }, "geometry": { "type": "Point", "coordinates": [ 2.3561729251016, 48.929922750445755 ] } },
{ "type": "Feature", "properties": { "ID": "IDFM:462954-Protection Civile", "LIGNE": "13", "STATION": "Montparnasse Bienvenue", "CARACTERISTIC": "Protection Civile", "datetime": "2024-07-26T16:00:00" }, "geometry": { "type": "Point", "coordinates": [ 2.320853438302227, 48.842285923604692 ] } },
{ "type": "Feature", "properties": { "ID": "IDFM:monomodalStopPlace:43169-Gestion flux", "LIGNE": "A", "STATION": "Nanterre Préfecture", "CARACTERISTIC": "Gestion flux", "datetime": "2024-07-27T08:00:00" }, "geometry": { "type": "Point", "coordinates": [ 2.222986242991368, 48.895886773064674 ] } },
{ "type": "Feature", "properties": { "ID": "IDFM:22085-Olympique", "LIGNE": "01", "STATION": "Concorde", "CARACTERISTIC": "Olympique", "datetime": "2024-07-01T00:00:00" }, "geometry": { "type": "Point", "coordinates": [ 2.32289099371916, 48.866472156532026 ] } },
{ "type": "Feature", "properties": { "ID": "IDFM:463080-Gestion flux", "LIGNE": "01", "STATION": "Hôtel de Ville", "CARACTERISTIC": "Gestion flux", "datetime": "2024-07-24T07:00:00" }, "geometry": { "type": "Point", "coordinates": [ 2.3520676701391, 48.857352405185871 ] } },
{ "type": "Feature", "properties": { "ID": "IDFM:22089-Gestion flux", "LIGNE": "01", "STATION": "Bastille", "CARACTERISTIC": "Gestion flux", "datetime": "2024-07-24T07:00:00" }, "geometry": { "type": "Point", "coordinates": [ 2.368718961034089, 48.852054293497723 ] } },
{ "type": "Feature", "properties": { "ID": "IDFM:22115-Gestion flux", "LIGNE": "02", "STATION": "Place de Clichy", "CARACTERISTIC": "Gestion flux", "datetime": "2024-08-11T12:00:00" }, "geometry": { "type": "Point", "coordinates": [ 2.32795832801022, 48.883669088272661 ] } },
{ "type": "Feature", "properties": { "ID": "IDFM:463088-Olympique", "LIGNE": "02", "STATION": "Pigalle", "CARACTERISTIC": "Olympique", "datetime": "2024-07-01T00:00:00" }, "geometry": { "type": "Point", "coordinates": [ 2.338217985455922, 48.882197374648179 ] } },
{ "type": "Feature", "properties": { "ID": "IDFM:463073-Olympique", "LIGNE": "04", "STATION": "Porte de Clignancourt", "CARACTERISTIC": "Olympique", "datetime": "2024-07-01T00:00:00" }, "geometry": { "type": "Point", "coordinates": [ 2.344624099102791, 48.897525631278015 ] } },
{ "type": "Feature", "properties": { "ID": "IDFM:22092-Protection Civile", "LIGNE": "04", "STATION": "Châtelet", "CARACTERISTIC": "Protection Civile", "datetime": "2024-07-24T07:00:00" }, "geometry": { "type": "Point", "coordinates": [ 2.346641430844014, 48.859661211559086 ] } },
{ "type": "Feature", "properties": { "ID": "IDFM:22137-Gestion flux", "LIGNE": "04", "STATION": "Saint-Michel", "CARACTERISTIC": "Gestion flux", "datetime": "2024-07-24T07:00:00" }, "geometry": { "type": "Point", "coordinates": [ 2.343964657062377, 48.853584935214847 ] } },
{ "type": "Feature", "properties": { "ID": "IDFM:22134-Gestion flux", "LIGNE": "04", "STATION": "Strasbourg - Saint-Denis", "CARACTERISTIC": "Gestion flux", "datetime": "2024-07-24T07:00:00" }, "geometry": { "type": "Point", "coordinates": [ 2.354491616563834, 48.86962358263758 ] } },
{ "type": "Feature", "properties": { "ID": "IDFM:463183-Protection Civile", "LIGNE": "04", "STATION": "Gare du Nord", "CARACTERISTIC": "Protection Civile", "datetime": "2024-07-26T16:00:00" }, "geometry": { "type": "Point", "coordinates": [ 2.356808788205409, 48.879591707410128 ] } },
{ "type": "Feature", "properties": { "ID": "IDFM:22001-Gestion flux", "LIGNE": "05", "STATION": "Stalingrad", "CARACTERISTIC": "Gestion flux", "datetime": "2024-07-24T07:00:00" }, "geometry": { "type": "Point", "coordinates": [ 2.367348121277192, 48.884144512894899 ] } },
{ "type": "Feature", "properties": { "ID": "IDFM:22095-Protection Civile", "LIGNE": "06", "STATION": "Charles de Gaulle - Etoile", "CARACTERISTIC": "Protection Civile", "datetime": "2024-07-26T15:00:00" }, "geometry": { "type": "Point", "coordinates": [ 2.294995735441831, 48.873838614785718 ] } },
{ "type": "Feature", "properties": { "ID": "IDFM:22164-Gestion flux", "LIGNE": "06", "STATION": "Trocadéro", "CARACTERISTIC": "Gestion flux", "datetime": "2024-07-24T07:30:00" }, "geometry": { "type": "Point", "coordinates": [ 2.287625377853519, 48.86346147371448 ] } }
]
}
