{
"type": "FeatureCollection",
"crs": { "type": "name", "properties": { "name": "urn:ogc:def:crs:OGC:1.3:CRS84" } },
"features": [
{ "type": "Feature", "properties": { "ID": "IDFM:463102-Gestion flux", "LIGNE": "06", "STATION": "Kléber", "CARACTERISTIC": "Gestion flux", "datetime": "2024-07-24T12:00:00" }, "geometry": { "type": "Point", "coordinates": [ 2.293325917989232, 48.871301612039105 ] } },
{ "type": "Feature", "properties": { "ID": "IDFM:463008-Gestion flux", "LIGNE": "07", "STATION": "Stalingrad", "CARACTERISTIC": "Gestion flux", "datetime": "2024-07-24T07:00:00" }, "geometry": { "type": "Point", "coordinates": [ 2.368898549057673, 48.884373030561257 ] } },
{ "type": "Feature", "properties": { "ID": "IDFM:22376-Protection Civile", "LIGNE": "07", "STATION": "Palais Royal - Musée du Louvre", "CARACTERISTIC": "Protection Civile", "datetime": "2024-07-26T16:00:00" }, "geometry": { "type": "Point", "coordinates": [ 2.337007354765684, 48.862683997769665 ] } },
{ "type": "Feature", "properties": { "ID": "IDFM:22187-Olympique", "LIGNE": "08", "STATION": "Lourmel", "CARACTERISTIC": "Olympique", "datetime": "2024-07-01T00:00:00" }, "geometry": { "type": "Point", "coordinates": [ 2.282241959855077, 48.838660863659918 ] } },
{ "type": "Feature", "properties": { "ID": "IDFM:24114-Protection Civile", "LIGNE": "T3a", "STATION": "Porte de Versailles - Parc des Expositions", "CARACTERISTIC": "Protection Civile", "datetime": "2024-07-25T16:00:00" }, "geometry": { "type": "Point", "coordinates": [ 2.288019793355663, 48.832606629028732 ] } },
{ "type": "Feature", "properties": { "ID": "IDFM:24108-Gestion flux", "LIGNE": "T3a", "STATION": "Balard", "CARACTERISTIC": "Gestion flux", "datetime": "2024-07-25T06:00:00" }, "geometry": { "type": "Point", "coordinates": [ 2.277355761841914, 48.836329047204387 ] } },
{ "type": "Feature", "properties": { "ID": "IDFM:462431-Olympique", "LIGNE": "T3b", "STATION": "Porte de Clignancourt", "CARACTERISTIC": "Olympique", "datetime": "2024-07-01T00:00:00" }, "geometry": { "type": "Point", "coordinates": [ 2.345110099244715, 48.897991438779712 ] } },
{ "type": "Feature", "properties": { "ID": "IDFM:24403-Protection Civile", "LIGNE": "T3b", "STATION": "Porte de Pantin - Parc de la Villette", "CARACTERISTIC": "Protection Civile", "datetime": "2024-07-27T20:00:00" }, "geometry": { "type": "Point", "coordinates": [ 2.395587116456805, 48.889029830075266 ] } },
{ "type": "Feature", "properties": { "ID": "IDFM:22199-Protection Civile", "LIGNE": "08", "STATION": "République", "CARACTERISTIC": "Protection Civile", "datetime": "2024-07-26T16:00:00" }, "geometry": { "type": "Point", "coordinates": [ 2.363256324247903, 48.867485132772032 ] } },
{ "type": "Feature", "properties": { "ID": "IDFM:463238-Gestion flux", "LIGNE": "09", "STATION": "Michel-Ange - Auteuil", "CARACTERISTIC": "Gestion flux", "datetime": "2024-07-24T14:00:00" }, "geometry": { "type": "Point", "coordinates": [ 2.263809322022663, 48.84770893216831 ] } },
{ "type": "Feature", "properties": { "ID": "IDFM:21923-Gestion flux", "LIGNE": "09", "STATION": "Michel-Ange - Molitor", "CARACTERISTIC": "Gestion flux", "datetime": "2024-08-04T09:00:00" }, "geometry": { "type": "Point", "coordinates": [ 2.261511916905205, 48.844911227563273 ] } },
{ "type": "Feature", "properties": { "ID": "IDFM:463259-Protection Civile", "LIGNE": "09", "STATION": "Porte de Saint-Cloud", "CARACTERISTIC": "Protection Civile", "datetime": "2024-07-24T10:00:00" }, "geometry": { "type": "Point", "coordinates": [ 2.256789496420714, 48.837997282873808 ] } },
{ "type": "Feature", "properties": { "ID": "IDFM:21930-Gestion flux", "LIGNE": "09", "STATION": "Exelmans", "CARACTERISTIC": "Gestion flux", "datetime": "2024-07-24T12:00:00" }, "geometry": { "type": "Point", "coordinates": [ 2.259800845144346, 48.842580276276529 ] } },
{ "type": "Feature", "properties": { "ID": "IDFM:463052-Gestion flux", "LIGNE": "09", "STATION": "Alma - Marceau", "CARACTERISTIC": "Gestion flux", "datetime": "2024-07-24T07:30:00" }, "geometry": { "type": "Point", "coordinates": [ 2.301104352392671, 48.864647147905821 ] } },
{ "type": "Feature", "properties": { "ID": "IDFM:462957-Protection Civile", "LIGNE": "09", "STATION": "Miromesnil", "CARACTERISTIC": "Protection Civile", "datetime": "2024-07-26T16:00:00" }, "geometry": { "type": "Point", "coordinates": [ 2.314676823824269, 48.873692101979138 ] } },
{ "type": "Feature", "properties": { "ID": "IDFM:21919-Protection Civile", "LIGNE": "09", "STATION": "Nation", "CARACTERISTIC": "Protection Civile", "datetime": "2024-07-26T15:00:00" }, "geometry": { "type": "Point", "coordinates": [ 2.395943721049814, 48.848885218417152 ] } },
{ "type": "Feature", "properties": { "ID": "IDFM:21979-Gestion flux", "LIGNE": "10", "STATION": "Ségur", "CARACTERISTIC": "Gestion flux", "datetime": "2024-07-27T07:00:00" }, "geometry": { "type": "Point", "coordinates": [ 2.307252074642872, 48.847226390053955 ] } },
{ "type": "Feature", "properties": { "ID": "IDFM:21937-Protection Civile", "LIGNE": "11", "STATION": "République", "CARACTERISTIC": "Protection Civile", "datetime": "2024-07-26T16:00:00" }, "geometry": { "type": "Point", "coordinates": [ 2.364804805140413, 48.867943031200888 ] } },
{ "type": "Feature", "properties": { "ID": "IDFM:21966-Protection Civile", "LIGNE": "11", "STATION": "Châtelet", "CARACTERISTIC": "Protection Civile", "datetime": "2024-07-24T07:00:00" }, "geometry": { "type": "Point", "coordinates": [ 2.347837405568787, 48.857761113545017 ] } },
{ "type": "Feature", "properties": { "ID": "IDFM:22038-Protection Civile", "LIGNE": "12", "STATION": "Montparnasse Bienvenue", "CARACTERISTIC": "Protection Civile", "datetime": "2024-07-26T16:00:00" }, "geometry": { "type": "Point", "coordinates": [ 2.323989185205003, 48.843823611254471 ] } },
{ "type": "Feature", "properties": { "ID": "IDFM:22040-Olympique", "LIGNE": "12", "STATION": "Pigalle", "CARACTERISTIC": "Olympique", "datetime": "2024-07-01T00:00:00" }, "geometry": { "type": "Point", "coordinates": [ 2.337184009105338, 48.882011788411084 ] } },
{ "type": "Feature", "properties": { "ID": "IDFM:463253-Gestion flux", "LIGNE": "13", "STATION": "Place de Clichy", "CARACTERISTIC": "Gestion flux", "datetime": "2024-08-11T12:00:00" }, "geometry": { "type": "Point", "coordinates": [ 2.327268983025867, 48.883723673452664 ] } },
{ "type": "Feature", "properties": { "ID": "IDFM:463129-Gestion flux", "LIGNE": "14", "STATION": "Bercy", "CARACTERISTIC": "Gestion flux", "datetime": "2024-07-27T08:00:00" }, "geometry": { "type": "Point", "coordinates": [ 2.379062015227723, 48.840101998033909 ] } },
{ "type": "Feature", "properties": { "ID": "IDFM:21956-Olympique", "LIGNE": "14", "STATION": "Cour Saint-Emilion", "CARACTERISTIC": "Olympique", "datetime": "2024-07-01T00:00:00" }, "geometry": { "type": "Point", "coordinates": [ 2.386464909364189, 48.833349997250139 ] } },
{ "type": "Feature", "properties": { "ID": "IDFM:463159-Protection Civile", "LIGNE": "14", "STATION": "Châtelet", "CARACTERISTIC": "Protection Civile", "datetime": "2024-07-24T07:00:00" }, "geometry": { "type": "Point", "coordinates": [ 2.346411849769497, 48.859556532726764 ] } },
{ "type": "Feature", "properties": { "ID": "IDFM:21962-Protection Civile", "LIGNE": "14", "STATION": "Saint-Lazare", "CARACTERISTIC": "Protection Civile", "datetime": "2024-07-26T16:00:00" }, "geometry": { "type": "Point", "coordinates": [ 2.324122029700433, 48.875607437185842 ] } },
{ "type": "Feature", "properties": { "ID": "IDFM:22084-Gestion flux", "LIGNE": "01", "STATION": "George V", "CARACTERISTIC": "Gestion flux", "datetime": "2024-07-27T12:00:00" }, "geometry": { "type": "Point", "coordinates": [ 2.300759784978918, 48.872037764589088 ] } },
{ "type": "Feature", "properties": { "ID": "IDFM:22079-Protection Civile", "LIGNE": "01", "STATION": "Palais Royal - Musée du Louvre", "CARACTERISTIC": "Protection Civile", "datetime": "2024-07-26T16:00:00" }, "geometry": { "type": "Point", "coordinates": [ 2.336454367754252, 48.862222265574147 ] } },
{ "type": "Feature", "properties": { "ID": "IDFM:463197-Protection Civile", "LIGNE": "01", "STATION": "Gare de Lyon", "CARACTERISTIC": "Protection Civile", "datetime": "2024-07-26T15:00:00" }, "geometry": { "type": "Point", "coordinates": [ 2.373125016776689, 48.845759486713973 ] } },
{ "type": "Feature", "properties": { "ID": "IDFM:22075-Olympique", "LIGNE": "01", "STATION": "Tuileries", "CARACTERISTIC": "Olympique", "datetime": "2024-07-01T00:00:00" }, "geometry": { "type": "Point", "coordinates": [ 2.329745321217279, 48.864550163577015 ] } },
{ "type": "Feature", "properties": { "ID": "IDFM:463256-Gestion flux", "LIGNE": "02", "STATION": "Porte Dauphine", "CARACTERISTIC": "Gestion flux", "datetime": "2024-07-27T09:00:00" }, "geometry": { "type": "Point", "coordinates": [ 2.277809349587935, 48.8717351159749 ] } },
{ "type": "Feature", "properties": { "ID": "IDFM:22143-Protection Civile", "LIGNE": "04", "STATION": "Montparnasse Bienvenue", "CARACTERISTIC": "Protection Civile", "datetime": "2024-07-26T16:00:00" }, "geometry": { "type": "Point", "coordinates": [ 2.32432946077911, 48.843852514525807 ] } }
]
}
